{
  "updated": "2026-03-12T11:21:41.507Z",
  "count": 49,
  "data": [
    {
      "name": "西門町文青大四房",
      "status": "未出租",
      "address": "台北市萬華區西寧南路202號",
      "price": "38000",
      "lat": "25.038539",
      "lng": "121.506217",
      "room": "4房2廳1衛1廚0陽",
      "size": "34.7",
      "dev": "永策-魏志豪",
      "phone": "0909-328115"
    },
    {
      "name": "威廉王子11F4",
      "status": "未出租",
      "address": "台北市中山區八德路二段66號",
      "price": "34000",
      "lat": "25.0451993",
      "lng": "121.5354133",
      "room": "1房1廳1衛0廚0陽",
      "size": "10.31",
      "dev": "永策-邱奕舜",
      "phone": "0958-232433"
    },
    {
      "name": "富裔101四樓之1",
      "status": "未出租",
      "address": "台北市信義區忠孝東路五段71巷12弄10號",
      "price": "38000",
      "lat": "25.0419562",
      "lng": "121.5667122",
      "room": "1房1廳1衛1廚0陽",
      "size": "13.78",
      "dev": "永策-林美惠",
      "phone": "0907-719008"
    },
    {
      "name": "",
      "status": "未出租",
      "address": "新北市板橋區大仁街24號",
      "price": "18000",
      "lat": "25.0169827",
      "lng": "121.4555994",
      "room": "3房1廳1衛1廚陽",
      "size": "25.67",
      "dev": "享寓-彭惠瑄",
      "phone": "0916-188570"
    },
    {
      "name": "",
      "status": "未出租",
      "address": "台北市松山區八德路四段765號",
      "price": "30000",
      "lat": "25.0511233",
      "lng": "121.5779532",
      "room": "1房0廳1衛0廚1陽",
      "size": "",
      "dev": "享寓-曾閔翊",
      "phone": "0911-604149"
    },
    {
      "name": "中山綻13f6",
      "status": "未出租",
      "address": "台北市大同區南京西路57號",
      "price": "45000",
      "lat": "25.0530325",
      "lng": "121.5192989",
      "room": "1房1廳1衛1廚1陽",
      "size": "19.98",
      "dev": "永策-林美惠",
      "phone": "0907-719008"
    },
    {
      "name": "將捷真愛5f3",
      "status": "未出租",
      "address": "台北市中山區建國北路一段41號",
      "price": "56000",
      "lat": "25.0482065",
      "lng": "121.5372117",
      "room": "2房2廳2衛1廚1陽",
      "size": "32.13",
      "dev": "永策-林美惠",
      "phone": "0907-719008"
    },
    {
      "name": "歸綏2B",
      "status": "未出租",
      "address": "台北市大同區歸綏街2巷3號",
      "price": "14500",
      "lat": "25.0585547",
      "lng": "121.5161667",
      "room": "1房0廳1衛0廚0陽",
      "size": "",
      "dev": "永策-林美惠",
      "phone": "0907-719008"
    },
    {
      "name": "",
      "status": "未出租",
      "address": "台北市中山區民權東路一段38巷13號",
      "price": "10000",
      "lat": "25.0621512",
      "lng": "121.5240209",
      "room": "",
      "size": "",
      "dev": "享寓-李欣達",
      "phone": "0913-528900"
    },
    {
      "name": "大觀路1F",
      "status": "未出租",
      "address": "新北市板橋區大觀路二段7巷68號",
      "price": "22500",
      "lat": "25.0030447",
      "lng": "121.4494039",
      "room": "",
      "size": "13.1",
      "dev": "永策-林美惠",
      "phone": "0907-719008"
    },
    {
      "name": "淡水鄧公分套",
      "status": "未出租",
      "address": "新北市淡水區鄧公路29巷22號",
      "price": "12000",
      "lat": "25.1701695",
      "lng": "121.4527434",
      "room": "1房0廳1衛0廚0陽",
      "size": "",
      "dev": "永策-邱奕舜",
      "phone": "0958-232433"
    },
    {
      "name": "淡水分套103",
      "status": "未出租",
      "address": "新北市淡水區水源街二段128巷2號",
      "price": "6000",
      "lat": "25.1745031",
      "lng": "121.4534445",
      "room": "1房0廳1衛0廚0陽",
      "size": "",
      "dev": "永策-邱奕舜",
      "phone": "0958-232433"
    },
    {
      "name": "八德路86A",
      "status": "未出租",
      "address": "台北市中山區八德路二段86號",
      "price": "12000",
      "lat": "25.0455606",
      "lng": "121.535794",
      "room": "1房0廳0衛1廚0陽",
      "size": "",
      "dev": "永策-鄒嘉偉",
      "phone": "0983-683512"
    },
    {
      "name": "東騰界9F1",
      "status": "未出租",
      "address": "台北市中山區撫順街10號",
      "price": "41000",
      "lat": "25.0635549",
      "lng": "121.5210772",
      "room": "1房1廳1衛0廚1陽",
      "size": "12.02",
      "dev": "永策-邱奕舜",
      "phone": "0958-232433"
    },
    {
      "name": "海德花園華廈2F",
      "status": "未出租",
      "address": "台北市中山區松江路221巷17號",
      "price": "58000",
      "lat": "25.0584628",
      "lng": "121.5352503",
      "room": "3房2廳2衛1廚2陽",
      "size": "39.41",
      "dev": "永策-邱奕舜",
      "phone": "0958-232433"
    },
    {
      "name": "",
      "status": "未出租",
      "address": "新北市板橋區大勇街3巷15號",
      "price": "30000",
      "lat": "25.0170974",
      "lng": "121.4552036",
      "room": "",
      "size": "24.89",
      "dev": "享寓-彭惠瑄",
      "phone": "0916-188570"
    },
    {
      "name": "",
      "status": "未出租",
      "address": "新北市板橋區長江路一段147號",
      "price": "60000",
      "lat": "25.0304225",
      "lng": "121.4608109",
      "room": "",
      "size": "30.07",
      "dev": "享寓-彭惠瑄",
      "phone": "0916-188570"
    },
    {
      "name": "芬蘭極光",
      "status": "未出租",
      "address": "新北市板橋區華江一路628號",
      "price": "80000",
      "lat": "25.0329091",
      "lng": "121.4646524",
      "room": "",
      "size": "70.59",
      "dev": "享寓-彭惠瑄",
      "phone": "0916-188570"
    },
    {
      "name": "景平路997A",
      "status": "未出租",
      "address": "新北市中和區景平路997巷6號",
      "price": "16000",
      "lat": "25.0056419",
      "lng": "121.4954292",
      "room": "1房1廳1衛0廚1陽",
      "size": "",
      "dev": "永策-鄒嘉偉",
      "phone": "0983-683512"
    },
    {
      "name": "忠孝西路7",
      "status": "未出租",
      "address": "台北市中正區忠孝西路一段7號",
      "price": "28000",
      "lat": "25.0460064",
      "lng": "121.5191759",
      "room": "1房1廳1衛0廚0陽",
      "size": "",
      "dev": "永策-鄒嘉偉",
      "phone": "0983-683512"
    },
    {
      "name": "林森北路147",
      "status": "未出租",
      "address": "台北市中山區林森北路147號",
      "price": "19000",
      "lat": "25.0514629",
      "lng": "121.525369",
      "room": "1房1廳1衛0廚2陽",
      "size": "8.84",
      "dev": "永策-鄒嘉偉",
      "phone": "0983-683512"
    },
    {
      "name": "",
      "status": "未出租",
      "address": "新北市板橋區金門街369巷28之2號",
      "price": "8000",
      "lat": "24.9832039",
      "lng": "121.4286907",
      "room": "",
      "size": "",
      "dev": "享寓-彭惠瑄",
      "phone": "0916-188570"
    },
    {
      "name": "",
      "status": "未出租",
      "address": "新北市板橋區金門街369巷28之2號",
      "price": "20000",
      "lat": "24.9832039",
      "lng": "121.4286907",
      "room": "",
      "size": "",
      "dev": "享寓-彭惠瑄",
      "phone": "0916-188570"
    },
    {
      "name": "長安宴11f7",
      "status": "未出租",
      "address": "台北市中山區長安東路二段105號",
      "price": "25000",
      "lat": "25.0485667",
      "lng": "121.5352541",
      "room": "1房0廳1衛0廚0陽",
      "size": "9.6",
      "dev": "永策-邱奕舜",
      "phone": "0958-232433"
    },
    {
      "name": "",
      "status": "未出租",
      "address": "新北市新莊區建安街86號",
      "price": "99000",
      "lat": "25.0242057",
      "lng": "121.42629",
      "room": "",
      "size": "68.99",
      "dev": "享寓-彭惠瑄",
      "phone": "0916-188570"
    },
    {
      "name": "圓通路65",
      "status": "未出租",
      "address": "新北市中和區圓通路65號",
      "price": "12500",
      "lat": "24.9970331",
      "lng": "121.5002422",
      "room": "1房0廳1衛0廚0陽",
      "size": "",
      "dev": "永策-鄒嘉偉",
      "phone": "0983-683512"
    },
    {
      "name": "保固聯合2F",
      "status": "未出租",
      "address": "台北市信義區忠孝東路四段553巷16弄7號",
      "price": "49988",
      "lat": "25.0428102",
      "lng": "121.5633193",
      "room": "3房2廳2衛1廚2陽",
      "size": "28.7",
      "dev": "永策-林美惠",
      "phone": "0907-719008"
    },
    {
      "name": "逸仙傳奇5F1",
      "status": "未出租",
      "address": "台北市信義區逸仙路42巷1號",
      "price": "40000",
      "lat": "25.0403061",
      "lng": "121.5619185",
      "room": "1房1廳1衛1廚1陽",
      "size": "16.73",
      "dev": "永策-林美惠",
      "phone": "0907-719008"
    },
    {
      "name": "京華大廈2F202",
      "status": "未出租",
      "address": "台北市中山區民權東路二段9號",
      "price": "26000",
      "lat": "25.0629168",
      "lng": "121.5285036",
      "room": "1房0廳1衛0廚0陽",
      "size": "",
      "dev": "永策-邱奕舜",
      "phone": "0958-232433"
    },
    {
      "name": "京華大廈2F201",
      "status": "未出租",
      "address": "台北市中山區民權東路二段9號",
      "price": "27000",
      "lat": "25.0629168",
      "lng": "121.5285036",
      "room": "1房0廳1衛0廚0陽",
      "size": "",
      "dev": "永策-邱奕舜",
      "phone": "0958-232433"
    },
    {
      "name": "",
      "status": "未出租",
      "address": "新北市板橋區中山路二段416巷36號",
      "price": "36000",
      "lat": "25.0200388",
      "lng": "121.4831957",
      "room": "3房1廳2衛1廚2陽",
      "size": "",
      "dev": "享寓-彭惠瑄",
      "phone": "0916-188570"
    },
    {
      "name": "",
      "status": "未出租",
      "address": "新北市永和區中正路362號",
      "price": "115000",
      "lat": "25.000914",
      "lng": "121.5178337",
      "room": "",
      "size": "25.39",
      "dev": "享寓-彭惠瑄",
      "phone": "0916-188570"
    },
    {
      "name": "",
      "status": "未出租",
      "address": "新北市中和區宜安路122號",
      "price": "90000",
      "lat": "24.9982559",
      "lng": "121.510153",
      "room": "",
      "size": "66.53",
      "dev": "享寓-彭惠瑄",
      "phone": "0916-188570"
    },
    {
      "name": "郵電金華6F",
      "status": "未出租",
      "address": "台北市大安區杭州南路二段61巷20之1",
      "price": "46000",
      "lat": "25.0299865",
      "lng": "121.5235329",
      "room": "3房2廳2衛1廚2陽",
      "size": "34.02",
      "dev": "永策-林美惠",
      "phone": "0907-719008"
    },
    {
      "name": "美麗行館7F",
      "status": "未出租",
      "address": "台北市中山區中山北路一段33巷9號",
      "price": "54000",
      "lat": "25.0488461",
      "lng": "121.5219081",
      "room": "2房2廳2衛1廚3陽",
      "size": "45.38",
      "dev": "永策-邱奕舜",
      "phone": "0958-232433"
    },
    {
      "name": "古亭同安街精美套房",
      "status": "未出租",
      "address": "台北市中正區同安街8巷2弄7號",
      "price": "18500",
      "lat": "25.025471",
      "lng": "121.522055",
      "room": "1房0廳1衛1廚0陽",
      "size": "",
      "dev": "永策-崔瓊云",
      "phone": "0935-996050"
    },
    {
      "name": "",
      "status": "未出租",
      "address": "新北市板橋區陽明街131號",
      "price": "120000",
      "lat": "25.0236928",
      "lng": "121.4635374",
      "room": "",
      "size": "51.3",
      "dev": "享寓-彭惠瑄",
      "phone": "0916-188570"
    },
    {
      "name": "民族東公寓3F",
      "status": "未出租",
      "address": "台北市松山區民族東路668巷1弄9號",
      "price": "39800",
      "lat": "25.0643163",
      "lng": "121.5466987",
      "room": "2房2廳1衛1廚2陽",
      "size": "29.05",
      "dev": "永策-邱奕舜",
      "phone": "0958-232433"
    },
    {
      "name": "美麗行館7F",
      "status": "未出租",
      "address": "台北市中山區中山北路一段33巷9號",
      "price": "54000",
      "lat": "25.0488461",
      "lng": "121.5219081",
      "room": "2房2廳2衛1廚3陽",
      "size": "45.38",
      "dev": "永策-邱奕舜",
      "phone": "0958-232433"
    },
    {
      "name": "中山金澤7F",
      "status": "未出租",
      "address": "台北市中山區雙城街3巷20號",
      "price": "65000",
      "lat": "25.0632608",
      "lng": "121.5253196",
      "room": "2房1廳1衛1廚1陽",
      "size": "42.88",
      "dev": "永策-邱奕舜",
      "phone": "0958-232433"
    },
    {
      "name": "三重電信2f",
      "status": "未出租",
      "address": "新北市三重區電信街106之3號",
      "price": "13500",
      "lat": "25.0580568",
      "lng": "121.4948234",
      "room": "1房0廳1衛0廚0陽",
      "size": "",
      "dev": "永策-邱奕舜",
      "phone": "0958-232433"
    },
    {
      "name": "板橋林園501",
      "status": "未出租",
      "address": "新北市板橋區林園街72號",
      "price": "17500",
      "lat": "25.0107283",
      "lng": "121.4530995",
      "room": "1房1廳1衛0廚0陽",
      "size": "",
      "dev": "永策-邱奕舜",
      "phone": "0958-232433"
    },
    {
      "name": "通化3B",
      "status": "未出租",
      "address": "台北市大安區通化街101巷45弄4號",
      "price": "13500",
      "lat": "25.0294155",
      "lng": "121.555847",
      "room": "1房0廳1衛0廚0陽",
      "size": "",
      "dev": "永策-林美惠",
      "phone": "0907-719008"
    },
    {
      "name": "天空之城11樓之12",
      "status": "未出租",
      "address": "新北市中和區景平路268號",
      "price": "23000",
      "lat": "24.9925976",
      "lng": "121.5145202",
      "room": "",
      "size": "15.02",
      "dev": "享寓-曾閔翊",
      "phone": "0911-604149"
    },
    {
      "name": "車路頭2房",
      "status": "未出租",
      "address": "新北市三重區車路頭街143巷9號",
      "price": "17000",
      "lat": "25.0765482",
      "lng": "121.4843187",
      "room": "2房1廳1衛1廚1陽",
      "size": "18.45",
      "dev": "永策-崔瓊云",
      "phone": "0935-996050"
    },
    {
      "name": "士林芝山美二房",
      "status": "未出租",
      "address": "台北市士林區文林路714巷11號",
      "price": "25000",
      "lat": "25.102758",
      "lng": "121.5211046",
      "room": "2房1廳1衛1廚0陽",
      "size": "25.57",
      "dev": "永策-邱奕舜",
      "phone": "0958-232433"
    },
    {
      "name": "板橋四維二房",
      "status": "未出租",
      "address": "新北市板橋區四維路259巷33之1號",
      "price": "25000",
      "lat": "25.0273467",
      "lng": "121.4619446",
      "room": "2房1廳1衛1廚1陽",
      "size": "13.73",
      "dev": "永策-邱奕舜",
      "phone": "0958-232433"
    },
    {
      "name": "和邑4F+4F1",
      "status": "未出租",
      "address": "台北市中山區長春路28號",
      "price": "55000",
      "lat": "25.0547649",
      "lng": "121.5247853",
      "room": "1房1廳1衛1廚2陽",
      "size": "34.55",
      "dev": "永策-林美惠",
      "phone": "0907-719008"
    },
    {
      "name": "新僑12FA分套",
      "status": "未出租",
      "address": "台北市萬華區中華路一段78號",
      "price": "12500",
      "lat": "25.045532",
      "lng": "121.508824",
      "room": "1房0廳1衛0廚1陽",
      "size": "",
      "dev": "永策-林美惠",
      "phone": "0907-719008"
    }
  ]
}